$GPTXT,01,01,02,u-blox ag - www.u-blox.com*50
16:56:47.557 -> $GPTXT,01,01,02,HW  UBX-G70xx   00070000 FF7FFFFFo*69
16:56:47.592 -> $GPTXT,01,01,02,ROM CORE 1.00 (59842) Jun 27 2012 17:43:52*59
16:56:47.659 -> $GPTXT,01,01,02,PROTVER 14.00*1E
16:56:47.694 -> $GPTXT,01,01,02,ANTSUPERV=AC SD PDoS SR*20
16:56:47.762 -> $GPTXT,01,01,02,ANTSTATUS=DONTKNOW*33
16:56:47.798 -> $GPTXT,01,01,02,LLC FFFFFFFF-FFFFFFFF-FFFFFFFF-FFFFFFFF-FFFFFFFD*2C
16:56:47.865 -> $GPRMC,205647.91,V,,,,,,,041020,,,N*70
16:56:47.899 -> $GPVTG,,,,,,,,,N*30
16:56:47.933 -> $GPGGA,205647.91,,,,,0,00,99.99,,,,,,*6C
16:56:47.967 -> $GPGSA,A,1,,,,,,,,,,,,,99.99,99.99,99.99*30
16:56:48.001 -> $GPGSV,2,1,05,10,85,243,,12,24,109,,21,32,291,,23,57,140,*75
16:56:48.070 -> $GPGSV,2,2,05,32,48,278,*4C
16:56:48.104 -> $GPGLL,,,,,205647.91,V,N*40
16:56:48.550 -> $GPTXT,01,01,02,ANTSTATUS=INIT*25
16:56:48.687 -> $GPRMC,205649.00,V,,,,,,,041020,,,N*76
16:56:48.756 -> $GPVTG,,,,,,,,,N*30
16:56:48.756 -> $GPGGA,205649.00,,,,,0,03,5.08,,,,,,*54
16:56:48.825 -> $GPGSA,A,1,12,10,23,,,,,,,,,,5.18,5.08,1.00*03
16:56:48.859 -> $GPGSV,2,1,05,10,85,243,30,12,24,109,41,21,32,291,25,23,57,140,40*70
16:56:48.928 -> $GPGSV,2,2,05,32,48,278,28*46
16:56:48.963 -> $GPGLL,,,,,205649.00,V,N*46
16:56:49.510 -> $GPTXT,01,01,02,ANTSTATUS=OK*3B
16:56:49.682 -> $GPRMC,205650.00,A,4538.10278,N,07318.09041,W,0.140,,041020,,,A*63
16:56:49.750 -> $GPVTG,,T,,M,0.140,N,0.260,K,A*22
16:56:49.784 -> $GPGGA,205650.00,4538.10278,N,07318.09041,W,1,05,5.36,44.3,M,-32.4,M,,*53
16:56:49.852 -> $GPGSA,A,3,12,10,23,32,21,,,,,,,,6.02,5.36,2.73*01
16:56:49.921 -> $GPGSV,2,1,07,10,85,243,38,12,24,109,39,14,,,30,21,32,291,30*45
16:56:49.989 -> $GPGSV,2,2,07,23,57,140,37,24,,,33,32,48,278,32*7B
16:56:50.057 -> $GPGLL,4538.10278,N,07318.09041,W,205650.00,A,A*78
16:56:50.676 -> $GPRMC,205651.00,A,4538.10068,N,07318.09202,W,0.013,,041020,,,A*63
16:56:50.745 -> $GPVTG,,T,,M,0.013,N,0.024,K,A*27
16:56:50.779 -> $GPGGA,205651.00,4538.10068,N,07318.09202,W,1,05,5.36,38.0,M,-32.4,M,,*5C
16:56:50.881 -> $GPGSA,A,3,12,10,23,32,21,,,,,,,,6.02,5.36,2.73*01
16:56:50.916 -> $GPGSV,2,1,06,10,85,243,39,12,24,109,37,21,32,291,27,23,57,140,36*78
16:56:50.984 -> $GPGSV,2,2,06,24,,,30,32,48,278,27*4F
16:56:51.018 -> $GPGLL,4538.10068,N,07318.09202,W,205651.00,A,A*7F
16:56:51.702 -> $GPRMC,205652.00,A,4538.10248,N,07318.09134,W,0.064,,041020,,,A*66
16:56:51.736 -> $GPVTG,,T,,M,0.064,N,0.119,K,A*28
16:56:51.770 -> $GPGGA,205652.00,4538.10248,N,07318.09134,W,1,05,5.36,37.6,M,-32.4,M,,*50
16:56:51.872 -> $GPGSA,A,3,12,10,23,32,21,,,,,,,,6.02,5.36,2.73*01
16:56:51.940 -> $GPGSV,2,1,06,10,85,243,38,12,24,109,38,21,32,291,27,23,57,140,36*76
16:56:51.974 -> $GPGSV,2,2,06,24,,,30,32,48,278,28*40
16:56:52.042 -> $GPGLL,4538.10248,N,07318.09134,W,205652.00,A,A*7A
16:56:52.694 -> $GPRMC,205653.00,A,4538.10386,N,07318.09075,W,0.011,,041020,,,A*62
16:56:52.729 -> $GPVTG,,T,,M,0.011,N,0.021,K,A*20
16:56:52.797 -> $GPGGA,205653.00,4538.10386,N,07318.09075,W,1,05,5.36,38.1,M,-32.4,M,,*5E
16:56:52.866 -> $GPGSA,A,3,12,10,23,32,21,,,,,,,,6.02,5.36,2.73*01
16:56:52.934 -> $GPGSV,2,1,06,10,85,243,38,12,24,109,38,21,32,291,26,23,57,140,36*77
16:56:53.002 -> $GPGSV,2,2,06,24,,,30,32,48,278,28*40
16:56:53.036 -> $GPGLL,4538.10386,N,07318.09075,W,205653.00,A,A*7C
16:56:53.682 -> $GPRMC,205654.00,A,4538.10504,N,07318.08944,W,0.071,,041020,,,A*65
16:56:53.750 -> $GPVTG,,T,,M,0.071,N,0.132,K,A*25
16:56:53.785 -> $GPGGA,205654.00,4538.10504,N,07318.08944,W,1,05,5.36,39.6,M,-32.4,M,,*59
16:56:53.854 -> $GPGSA,A,3,12,10,23,32,21,,,,,,,,6.02,5.36,2.73*01
16:56:53.923 -> $GPGSV,2,1,06,10,85,243,39,12,24,109,38,21,32,291,26,23,57,140,36*76
16:56:53.993 -> $GPGSV,2,2,06,24,,,31,32,48,278,29*40
16:56:54.027 -> $GPGLL,4538.10504,N,07318.08944,W,205654.00,A,A*7D
16:56:54.680 -> $GPRMC,205655.00,A,4538.10580,N,07318.08847,W,0.240,,041020,,,A*6A
16:56:54.749 -> $GPVTG,,T,,M,0.240,N,0.444,K,A*21
16:56:54.783 -> $GPGGA,205655.00,4538.10580,N,07318.08847,W,1,05,5.36,40.7,M,-32.4,M,,*59
16:56:54.852 -> $GPGSA,A,3,12,10,23,32,21,,,,,,,,6.02,5.36,2.74*06
16:56:54.921 -> $GPGSV,2,1,06,10,85,243,36,12,24,109,38,21,32,291,27,23,57,140,36*78
16:56:54.989 -> $GPGSV,2,2,06,24,,,32,32,48,278,29*43
16:56:55.024 -> $GPGLL,4538.10580,N,07318.08847,W,205655.00,A,A*72
16:56:55.680 -> $GPRMC,205656.00,A,4538.10775,N,07318.08715,W,0.070,,041020,,,A*68
16:56:55.748 -> $GPVTG,,T,,M,0.070,N,0.130,K,A*26
16:56:55.782 -> $GPGGA,205656.00,4538.10775,N,07318.08715,W,1,05,5.36,42.0,M,-32.4,M,,*5F
16:56:55.850 -> $GPGSA,A,3,12,10,23,32,21,,,,,,,,6.02,5.36,2.74*06
16:56:55.918 -> $GPGSV,2,1,06,10,85,243,30,12,24,109,42,21,32,291,27,23,57,140,39*7C
16:56:55.988 -> $GPGSV,2,2,06,24,,,31,32,48,278,34*4C
16:56:56.022 -> $GPGLL,4538.10775,N,07318.08715,W,205656.00,A,A*71
16:56:56.670 -> $GPRMC,205657.00,A,4538.10801,N,07318.08657,W,0.088,,041020,,,A*65
16:56:56.739 -> $GPVTG,,T,,M,0.088,N,0.163,K,A*27
16:56:56.773 -> $GPGGA,205657.00,4538.10801,N,07318.08657,W,1,05,5.36,43.0,M,-32.4,M,,*54
16:56:56.876 -> $GPGSA,A,3,12,10,23,32,21,,,,,,,,6.02,5.36,2.74*06
16:56:56.910 -> $GPGSV,2,1,06,10,85,243,32,12,24,109,42,21,32,291,25,23,57,140,38*7D
16:56:57.012 -> $GPGSV,2,2,06,24,,,24,32,48,278,29*44
16:56:57.012 -> $GPGLL,4538.10801,N,07318.08657,W,205657.00,A,A*7B
16:56:57.697 -> $GPRMC,205658.00,A,4538.10820,N,07318.08619,W,0.124,,041020,,,A*64
16:56:57.732 -> $GPVTG,,T,,M,0.124,N,0.230,K,A*25
16:56:57.801 -> $GPGGA,205658.00,4538.10820,N,07318.08619,W,1,05,5.36,43.5,M,-32.4,M,,*57



$GPRMC,205654.00,A,4538.10504,N,07318.08944,W,0.071,,041020,,,A*65
$GPVTG,,T,,M,0.071,N,0.132,K,A*25
$GPGGA,205654.00,4538.10504,N,07318.08944,W,1,05,5.36,39.6,M,-32.4,M,,*59
45.63513 -73.30141 37m
$GPGSA,A,3,12,10,23,32,21,,,,,,,,6.02,5.36,2.73*01
$GPGSV,2,1,06,10,85,243,39,12,24,109,38,21,32,291,26,23,57,140,36*76
$GPGSV,2,2,06,24,,,31,32,48,278,29*40
$GPGLL,4538.10504,N,07318.08944,W,205654.00,A,A*7D

$GPGGA,
205654.00,
4538.10504,
N,
07318.08944,
W,
1,
05,
5.36,
39.6,
M,
-32.4,
M,
,
*59
0123456789abcdefghijklmnopqrstuvwxyzABCDEFGHIJKLMNOPQRSTUVWXYZ

